City,Country,Temperature,Humidity,Cloudiness,Windspeed,Latitude,Longitude,Date
Bubaque,GW,78.75,81,100,1.54,11.2833,-15.8333,1626131101
Hermanus,ZA,46.8,66,100,27.0,-34.4187,19.2345,1626131104
Samarinda,ID,73.44,98,98,1.83,-0.5,117.15,1626131104
Airai,TL,58.35,54,13,3.65,-8.9266,125.4092,1626131104
Sitka,US,57.09,88,90,8.05,57.0531,-135.33,1626131105
Jamestown,US,76.84,94,40,1.99,42.097,-79.2353,1626130823
Forsytheganj,BY,67.33,93,100,1.48,52.6333,29.7333,1626131105
Mataura,NZ,42.46,91,84,2.06,-46.1927,168.8643,1626131105
Vaini,TO,77.16,94,90,9.22,-21.2,-175.2,1626131106
Tuktoyaktuk,CA,55.51,56,96,2.53,69.4541,-133.0374,1626131106
Avarua,CK,80.65,69,20,12.66,-21.2078,-159.775,1626131106
Atuona,PF,77.29,77,15,22.19,-9.8,-139.0333,1626131107
Arraial do Cabo,BR,70.27,81,0,9.51,-22.9661,-42.0278,1626131107
Arrifes,PT,64.65,82,20,8.05,37.7667,-25.7,1626131107
Wajid,SO,72.81,76,30,21.85,3.8093,43.2471,1626131108
Punta Arenas,CL,35.71,87,20,34.52,-53.15,-70.9167,1626131108
Rikitea,PF,73.85,74,1,11.72,-23.1203,-134.9692,1626131108
Port Alfred,ZA,53.13,79,75,29.01,-33.5906,26.891,1626131109
Bosaso,SO,93.24,38,100,22.48,11.2842,49.1816,1626131110
Katsuura,JP,80.19,88,100,7.38,35.1333,140.3,1626131110
Yining,CN,80.58,81,92,3.47,29.0361,114.5636,1626131110
Mayo,US,92.25,71,1,3.0,38.8876,-76.5119,1626131110
‘Āhuimanu,US,87.51,61,90,11.5,21.4447,-157.8378,1626131111
Leningradskiy,RU,48.13,77,50,11.9,69.3833,178.4167,1626131111
Nioro,GM,79.07,80,100,8.81,13.35,-15.75,1626131111
Barrow,US,48.22,72,40,19.57,71.2906,-156.7887,1626131112
Ushuaia,AR,35.26,80,75,13.8,-54.8,-68.3,1626131110
Poum,NC,70.2,73,23,4.61,-20.2333,164.0167,1626131112
La Ronge,CA,66.42,77,75,10.36,55.1001,-105.2842,1626131113
Bambous Virieux,MU,67.21,65,39,16.35,-20.3428,57.7575,1626131113
Plácido de Castro,BR,80.91,44,13,1.3,-10.3353,-67.1856,1626131113
Klaksvík,FO,50.92,92,80,1.1,62.2266,-6.589,1626131114
Acajutla,SV,84.06,71,83,3.8,13.5928,-89.8275,1626131115
Dingle,PH,79.48,89,100,3.0,10.9995,122.6711,1626131116
Acapulco de Juárez,MX,85.03,69,78,8.21,16.8634,-99.8901,1626130961
Bathsheba,BB,83.01,74,40,18.41,13.2167,-59.5167,1626131116
New Norfolk,AU,52.88,78,67,1.99,-42.7826,147.0587,1626131116
Hornepayne,CA,82.94,39,6,8.88,49.2138,-84.7705,1626131117
Chicama,PE,64.94,80,100,8.5,-7.8447,-79.1469,1626131117
Busselton,AU,54.05,78,32,21.43,-33.65,115.3333,1626131117
Cidreira,BR,60.46,88,100,9.62,-30.1811,-50.2056,1626131118
Esperance,AU,59.9,67,35,25.66,-33.8667,121.9,1626131118
Provideniya,RU,46.51,81,0,11.18,64.3833,-173.3,1626131118
Vardø,NO,52.21,87,100,16.13,70.3705,31.1107,1626130989
Pingzhuang,CN,70.59,97,100,15.12,42.0372,119.2889,1626131119
Souillac,MU,67.35,75,33,17.45,-20.5167,57.5167,1626131119
Pimentel,PE,68.29,77,40,16.11,-6.8367,-79.9342,1626131119
Ketchikan,US,63.07,67,90,10.36,55.3422,-131.6461,1626131120
Norman Wells,CA,79.48,24,10,6.24,65.282,-126.8329,1626131121
Grand Gaube,MU,67.37,70,1,5.01,-20.0064,57.6608,1626131121
Andros Town,BS,84.16,75,94,20.98,24.7,-77.7667,1626131121
Vao,NC,67.6,66,100,14.03,-22.6667,167.4833,1626131121
Görlitz,DE,67.95,80,9,3.69,51.1552,14.9885,1626131122
Kavieng,PG,83.82,73,53,16.22,-2.5744,150.7967,1626131122
Aromashevo,RU,50.95,87,93,15.19,56.8602,68.6375,1626131123
Upernavik,GL,42.53,69,0,3.11,72.7868,-56.1549,1626131123
Mar del Plata,AR,53.87,74,100,1.99,-38.0023,-57.5575,1626131111
San Felipe,VE,74.17,95,85,3.91,10.3399,-68.7425,1626131123
Deputatsky,RU,46.06,80,100,4.05,69.3,139.9,1626131125
Kapaa,US,86.32,74,40,3.0,22.0752,-159.319,1626131126
Angoche,MZ,70.05,86,0,4.36,-16.2325,39.9086,1626131126
Egvekinot,RU,56.71,66,72,6.13,66.3167,-179.1667,1626131127
Darhan,MN,60.17,84,97,6.2,49.4867,105.9228,1626131127
San Quintín,MX,71.91,67,100,7.87,30.4833,-115.95,1626131127
Castro,BR,54.77,71,63,1.54,-24.7911,-50.0119,1626131128
Cape Town,ZA,50.11,68,94,5.99,-33.9258,18.4232,1626131128
Pokhara,NP,71.37,89,86,2.71,28.2333,83.9833,1626131128
Bluff,NZ,45.64,77,70,7.2,-46.6,168.3333,1626131128
Bambanglipuro,ID,54.61,91,52,4.81,-7.95,110.2833,1626131129
Khatanga,RU,45.63,57,100,5.86,71.9667,102.5,1626131129
Snezhnogorsk,RU,58.78,94,100,13.13,69.1933,33.2531,1626131129
San Cristobal,VE,75.38,72,30,4.47,7.7669,-72.225,1626131130
Sibu,MY,74.61,94,96,2.26,2.3,111.8167,1626130854
Ulladulla,AU,55.87,66,43,7.63,-35.35,150.4667,1626131130
Solnechnyy,RU,72.61,88,86,3.53,50.7214,136.6319,1626131130
Vestmannaeyjar,IS,51.78,90,100,7.78,63.4427,-20.2734,1626131131
Boundiali,CI,75.83,74,72,3.89,9.5217,-6.4869,1626131131
Hobart,AU,53.22,75,20,1.99,-42.8794,147.3294,1626131131
Imeni Poliny Osipenko,RU,73.62,85,89,5.97,52.4201,136.4853,1626131132
Mezen',RU,54.91,52,74,5.64,65.8522,44.24,1626131132
Bredasdorp,ZA,46.27,78,95,19.91,-34.5322,20.0403,1626131132
Hualmay,PE,64.83,78,96,9.66,-11.0964,-77.6139,1626131132
Riyadh,SA,95.68,11,60,4.54,24.6877,46.7219,1626130942
Zelenoborskiy,RU,60.89,89,90,1.19,66.845,32.3622,1626131133
Yellowknife,CA,75.29,40,79,5.75,62.456,-114.3525,1626130862
Tautira,PF,86.02,77,20,18.05,-17.7333,-149.15,1626131133
Tuatapere,NZ,43.12,82,60,4.34,-46.1333,167.6833,1626131134
Huarmey,PE,65.43,80,88,9.73,-10.0681,-78.1522,1626131134
Elko,US,100.42,3,7,14.0,41.0002,-115.5012,1626131134
Kanye,BW,47.52,30,0,14.36,-24.9667,25.3327,1626131134
Puerto Ayora,EC,72.43,76,69,10.42,-0.7393,-90.3518,1626131135
Mackay,AU,66.69,85,83,12.06,-21.15,149.2,1626131086
Butaritari,KI,82.58,77,79,13.87,3.0707,172.7902,1626131135
Pevek,RU,41.22,84,29,3.11,69.7008,170.3133,1626131136
Kamina,CD,58.62,40,23,2.33,-8.7386,24.9906,1626131136
Saint Paul Harbor,US,54.91,82,90,12.66,57.79,-152.4072,1626131136
Lorengau,PG,84.31,74,47,13.91,-2.0226,147.2712,1626130876
Kuybysheve,UA,66.31,89,36,9.46,47.358,36.6491,1626131137
Hasaki,JP,75.6,89,100,2.98,35.7333,140.8333,1626131137
Carnarvon,AU,66.27,61,75,17.27,-24.8667,113.6333,1626131137
Hambantota,LK,79.34,81,96,19.75,6.1241,81.1185,1626131138
Tual,ID,80.46,84,30,20.83,-5.6667,132.75,1626131138
Saldanha,ZA,51.42,61,91,22.57,-33.0117,17.9442,1626131138
North Bend,US,75.24,75,90,27.63,43.4065,-124.2243,1626131139
Te Anau,NZ,37.47,88,38,0.81,-45.4167,167.7167,1626131139
Hilo,US,82.27,82,91,3.0,19.7297,-155.09,1626130924
Ardabil,IR,62.46,81,0,2.26,38.2498,48.2933,1626130864
Mahébourg,MU,67.24,68,44,17.07,-20.4081,57.7,1626131140
San Patricio,US,91.81,66,100,12.53,28.017,-97.5169,1626131140
Saint-Philippe,RE,69.39,77,42,14.45,-21.3585,55.7679,1626131140
Vila Franca do Campo,PT,66.61,75,52,11.9,37.7167,-25.4333,1626131141
Norsup,VU,81.73,72,39,7.65,-16.0667,167.3833,1626131141
Tasiilaq,GL,46.56,94,100,13.94,65.6145,-37.6368,1626131141
East London,ZA,56.77,67,84,27.34,-33.0153,27.9116,1626130897
Bitkine,TD,80.46,62,82,7.67,11.9801,18.2138,1626131142
Port Lincoln,AU,51.8,72,61,13.89,-34.7333,135.8667,1626130878
Mugur-Aksy,RU,48.67,83,15,5.44,50.35,90.5,1626131142
Lebu,CL,48.72,82,0,6.29,-37.6167,-73.65,1626131142
Guerrero Negro,MX,79.12,58,90,14.45,27.9769,-114.0611,1626131143
Ugoofaaru,MV,82.09,78,98,14.41,5.6667,73.0,1626131143
Nikolayevsk-on-Amur,RU,68.4,93,100,1.83,53.1406,140.73,1626131143
Araouane,ML,96.76,14,6,3.4,18.9048,-3.5265,1626131144
Fonte Boa,BR,73.81,97,67,2.01,-2.4959,-66.2662,1626131144
Kenai,US,63.03,77,90,3.44,60.5544,-151.2583,1626131144
Tamiahua,MX,84.63,67,99,10.74,21.2667,-97.45,1626131144
Arosa,CH,56.75,87,51,8.7,46.7779,9.6762,1626131145
Ponta do Sol,PT,72.12,72,96,10.92,32.6667,-17.1,1626131145
Najrān,SA,83.62,19,93,4.36,17.4924,44.1277,1626131145
Malanje,AO,62.85,24,100,1.57,-9.5402,16.341,1626131146
Okato,NZ,50.41,63,58,9.1,-39.2,173.8833,1626131146
George Town,MY,79.9,87,20,0.0,5.4112,100.3354,1626131146
Ahipara,NZ,54.48,66,100,16.62,-35.1667,173.1667,1626131147
Vostok,RU,76.12,66,2,0.54,46.4856,135.8833,1626131147
Quelimane,MZ,64.35,88,0,0.0,-17.8786,36.8883,1626131148
Cayenne,GF,82.09,83,0,3.0,4.9333,-52.3333,1626131148
Karratha,AU,71.65,92,40,6.55,-20.7377,116.8463,1626131148
Clyde River,CA,48.42,68,100,0.69,70.4692,-68.5914,1626131149
Rochegda,RU,61.95,98,84,1.72,62.8,43.25,1626131149
Severo-Kuril'sk,RU,54.7,88,82,8.48,50.6789,156.125,1626131147
Aklavik,CA,77.56,26,84,10.02,68.2191,-135.0107,1626131149
Husavik,IS,59.04,70,56,7.56,66.0449,-17.3389,1626131150
Codrington,AU,50.18,93,100,11.52,-38.2667,141.9667,1626131150
Ovsyanka,RU,61.77,78,96,1.57,55.9575,92.5519,1626131150
Gazojak,TM,82.74,25,2,2.35,41.1875,61.4036,1626131151
Sovetskaya Gavan',RU,68.0,89,47,4.0,48.9723,140.2878,1626131151
Ridgecrest,US,116.46,9,20,1.01,35.6225,-117.6709,1626131151
Torbay,CA,63.75,90,75,14.97,47.6666,-52.7314,1626131137
Trois-Rivières,CA,79.83,59,100,6.2,46.3501,-72.5491,1626131112
Dikson,RU,33.24,89,100,19.46,73.5069,80.5464,1626131152
Sabang,ID,82.6,74,93,18.86,5.8933,95.3214,1626131152
Nhamundá,BR,79.05,74,81,2.75,-2.1861,-56.7131,1626131152
Kavaratti,IN,82.54,82,96,22.12,10.5669,72.642,1626131153
Tupelo,US,83.98,77,1,5.01,34.2576,-88.7034,1626131153
Alugan,PH,82.89,78,99,2.53,12.2188,125.4808,1626131153
Renukoot,IN,80.01,75,4,2.86,24.2,83.0333,1626131154
Port Elizabeth,ZA,51.1,66,100,30.67,-33.918,25.5701,1626131154
Dauriya,RU,67.82,90,100,4.83,49.9333,116.8667,1626131154
Dekar,BW,52.92,35,0,10.13,-21.5333,21.9333,1626131155
Skibbereen,IE,58.8,92,54,6.35,51.55,-9.2667,1626131155
Acobamba,PE,53.15,86,97,5.3,-11.3525,-75.6594,1626131155
Boguchany,RU,62.64,71,25,1.92,58.3814,97.4531,1626131156
Saint-Joseph,RE,68.38,76,21,13.94,-21.3667,55.6167,1626131156
Albany,US,71.55,95,99,2.71,42.6001,-73.9662,1626131156
Cuamba,MZ,60.35,83,25,3.09,-14.8031,36.5372,1626131156
Longyan,CN,77.47,92,97,2.89,25.1072,117.0225,1626131157
Tiksi,RU,46.15,67,43,7.94,71.6872,128.8694,1626131157
Nanortalik,GL,39.54,91,68,10.65,60.1432,-45.2371,1626131157
Filingué,NE,88.9,43,85,8.14,14.3521,3.3168,1626131158
Marsá Maţrūḩ,EG,77.32,68,0,5.46,31.3525,27.2453,1626131036
Ust'-Ilimsk,RU,64.74,58,10,2.84,58.0006,102.6619,1626131158
Hay River,CA,70.99,36,6,0.45,60.8156,-115.7999,1626131158
Kaitangata,NZ,48.92,74,99,5.39,-46.2817,169.8464,1626131156
Pierre,US,97.99,29,1,13.8,44.3683,-100.351,1626131159
Thompson,CA,64.56,72,90,9.22,55.7435,-97.8558,1626131159
Nikolskoye,RU,64.4,62,2,2.73,59.7035,30.7861,1626131136
Shache,CN,75.69,43,66,5.12,38.4167,77.2406,1626131160
Orangeburg,US,89.89,81,93,9.93,33.4918,-80.8557,1626131160
Boda,CF,68.59,95,100,3.65,4.3189,17.4695,1626131160
Bilibino,RU,77.11,39,29,8.3,68.0546,166.4372,1626131160
Chokurdakh,RU,47.17,41,100,9.82,70.6333,147.9167,1626131161
Adrar,MR,93.09,26,65,6.73,20.5022,-10.0711,1626131161
Srednekolymsk,RU,41.29,86,100,8.57,67.45,153.6833,1626131161
San Francisco,US,89.1,79,20,5.01,37.7749,-122.4194,1626131019
Flinders,AU,60.39,74,3,4.99,-34.5833,150.8552,1626131162
San Juan,AR,59.76,35,13,11.05,-31.5375,-68.5364,1626131162
Walvis Bay,NA,55.09,73,0,14.74,-22.9575,14.5053,1626131163
Bethel,US,76.28,88,90,3.0,41.3712,-73.414,1626131145
Yulara,AU,51.64,58,97,0.0,-25.2406,130.9889,1626131163
Hofn,IS,53.26,96,100,12.08,64.2539,-15.2082,1626131163
Turukhansk,RU,42.73,67,49,8.46,65.8167,87.9833,1626131164
Bazaliia,UA,61.75,91,67,4.76,49.7127,26.4733,1626131164
Ixtapa,MX,88.83,62,75,12.66,20.7,-105.2,1626131164
Dhupgāri,IN,80.13,84,91,1.92,26.5858,89.0145,1626131165
Almaty,KZ,58.91,72,75,2.24,43.25,76.95,1626131165
Yumen,CN,70.02,44,51,9.06,40.2833,97.2,1626131165
Kuala Terengganu,MY,77.5,86,88,3.71,5.3302,103.1408,1626131166
Port Blair,IN,80.96,81,96,10.38,11.6667,92.75,1626131166
Khonsa,IN,68.05,97,34,4.29,27.0167,95.5667,1626131166
Sur,OM,88.52,63,100,7.74,22.5667,59.5289,1626131167
Kahului,US,86.74,76,80,10.04,20.8947,-156.47,1626130996
Aykhal,RU,59.56,77,98,7.25,66.0,111.5,1626131167
Murgab,TM,79.18,22,0,5.79,37.4966,61.9714,1626131167
Grindavik,IS,50.56,87,75,10.36,63.8424,-22.4338,1626131168
Ust-Nera,RU,56.3,68,94,4.25,64.5667,143.2,1626131168
Indore,IN,79.99,73,48,7.99,22.7179,75.8333,1626131168
Huilong,CN,82.98,88,100,11.72,31.8111,121.655,1626131169
Polysayevo,RU,59.41,94,99,3.8,54.6012,86.2459,1626131169
St. George's,GD,82.08,83,20,11.5,12.0564,-61.7485,1626131169
Kuloy,RU,62.74,94,18,3.09,61.0305,42.4925,1626131170
Hithadhoo,MV,81.37,75,100,3.96,-0.6,73.0833,1626131152
Qaanaaq,GL,42.82,65,80,7.96,77.484,-69.3632,1626131170
Province of Mantua,IT,78.04,74,64,5.01,45.1667,10.7833,1626131170
Oxapampa,PE,59.0,97,75,0.78,-10.5775,-75.4017,1626131171
Tsaratanana,MG,63.68,70,2,10.54,-16.7833,47.65,1626131171
Fort Nelson,CA,76.44,36,100,5.95,58.8053,-122.7002,1626131171
Erenhot,CN,72.7,65,93,6.6,43.6475,111.9767,1626131172
Necoclí,CO,81.12,86,89,6.15,8.4234,-76.786,1626131172
Lata,PT,58.82,95,9,5.19,40.1629,-8.3327,1626131172
Chui,UY,59.13,88,99,6.44,-33.6971,-53.4616,1626131172
Mandeville,JM,78.85,64,61,8.86,18.0417,-77.5071,1626131173
Cap Malheureux,MU,67.46,70,0,5.01,-19.9842,57.6142,1626131173
Khirkiya,IN,81.52,71,0,5.1,22.1674,76.8605,1626131173
Hong Kong,HK,87.33,82,100,1.01,22.2855,114.1577,1626131160
Pisco,PE,64.45,82,0,12.66,-13.7,-76.2167,1626131174
Ayan,RU,57.74,88,100,5.5,56.45,138.1667,1626131174
Half Moon Bay,US,88.97,70,20,10.36,37.4636,-122.4286,1626130921
Mīnāb,IR,88.57,71,78,3.4,27.1467,57.0801,1626131174
Zhigansk,RU,57.2,73,100,6.69,66.7697,123.3711,1626131153
Tabuk,PH,79.68,79,96,3.74,17.4189,121.4443,1626131175
San Isidro,PE,67.01,86,90,8.05,-12.1167,-77.05,1626131175
Saiha,IN,72.61,99,100,0.63,22.4833,92.9667,1626131175
Capreol,CA,81.55,50,97,4.59,46.706,-80.9225,1626130877
Vulcan,RO,62.53,71,15,2.64,45.3833,23.2667,1626131176
Farafangana,MG,68.43,87,77,6.96,-22.8167,47.8333,1626130934
Bhāndāria,BD,81.18,84,100,9.33,22.4861,90.0609,1626131176
Port Macquarie,AU,55.89,76,7,5.26,-31.4333,152.9167,1626131176
Bārdoli,IN,79.81,93,88,6.29,21.1167,73.1167,1626131177
Nome,US,63.16,77,1,11.5,64.5011,-165.4064,1626131177
Vila Velha,BR,67.95,94,20,3.44,-20.3297,-40.2925,1626131079
Butajīra,ET,57.49,89,87,3.18,8.1167,38.3667,1626131178
Samaná,DO,78.76,84,100,9.91,19.2056,-69.3369,1626131178
Pangnirtung,CA,46.26,91,100,4.27,66.1451,-65.7125,1626131178
Eureka,US,67.12,79,42,5.01,40.8021,-124.1637,1626131132
Rizhao,CN,76.44,95,100,12.41,35.4275,119.4553,1626131110
Las Vegas,US,115.2,16,1,11.5,36.175,-115.1372,1626130938
Faanui,PF,79.66,74,3,20.38,-16.4833,-151.75,1626131179
Havelock,US,84.97,84,88,7.0,34.8791,-76.9013,1626131180
Alihe,CN,70.11,98,100,2.57,50.5667,123.7167,1626131180
Sinjai,ID,77.41,87,98,0.56,-5.1241,120.253,1626131181
Thinadhoo,MV,81.57,75,90,5.39,0.5333,72.9333,1626131181
Lunglei,IN,69.24,99,100,1.57,22.8833,92.7333,1626131181
Tunapuna,TT,81.99,81,63,7.87,10.6333,-61.3833,1626130965
São João da Barra,BR,69.82,86,0,7.43,-21.6403,-41.0511,1626131100
Los Llanos de Aridane,ES,71.35,78,0,13.8,28.6585,-17.9182,1626131182
Lixouri,GR,76.24,72,0,4.92,38.2019,20.4314,1626131182
Fălcoiu,RO,73.99,59,0,3.98,44.2333,24.3667,1626131183
Fortuna,US,90.19,88,90,11.5,40.5982,-124.1573,1626131153
Sānchor,IN,85.93,70,100,8.97,24.7553,71.7722,1626131183
Talnakh,RU,37.0,86,100,7.58,69.4865,88.3972,1626131183
High Level,CA,77.47,27,70,7.25,58.5169,-117.136,1626131184
Cherskiy,RU,49.93,65,97,9.53,68.75,161.3,1626131141
Jasper,US,77.54,71,90,1.99,37.2001,-94.3502,1626131184
Angoram,PG,78.89,87,89,3.76,-4.0625,144.0661,1626131184
Olinda,BR,74.93,73,40,9.22,-8.0089,-34.8553,1626131185
Haines Junction,CA,54.05,74,100,5.03,60.7522,-137.5108,1626131185
Kupang,ID,72.18,88,20,5.75,-10.1667,123.5833,1626131185
São Filipe,CV,73.13,80,100,4.5,14.8961,-24.4956,1626131186
Fukuechō,JP,79.92,90,89,8.72,32.6881,128.8419,1626131186
Saint Simons,US,86.31,72,20,13.8,31.1352,-81.3901,1626131186
Avilés,ES,61.99,76,40,8.01,43.5547,-5.9248,1626131186
Ladário,BR,75.94,34,15,2.33,-19.0047,-57.6017,1626131187
Petropavlovsk-Kamchatskiy,RU,70.39,68,0,4.47,53.0452,158.6483,1626131187
Söderhamn,SE,59.04,77,98,2.24,61.3037,17.0592,1626131187
Luganville,VU,79.65,80,53,5.86,-15.5333,167.1667,1626131188
Banda Aceh,ID,79.36,76,93,12.71,5.5577,95.3222,1626131060
Piaçabuçu,BR,73.8,85,55,7.94,-10.4056,-36.4344,1626131070
Bintulu,MY,75.92,93,61,4.68,3.1667,113.0333,1626131188
Sørland,NO,56.7,93,96,17.13,67.667,12.6934,1626131188
Contamana,PE,74.59,93,54,1.99,-7.3333,-75.0167,1626131189
Luanda,AO,68.68,91,99,10.74,-8.8368,13.2343,1626130927
Slave Lake,CA,76.42,33,29,6.4,55.2834,-114.769,1626131189
Stromness,GB,55.65,91,87,2.91,58.965,-3.296,1626131189
Cairns,AU,75.11,78,40,8.05,-16.9167,145.7667,1626131165
Brae,GB,57.11,94,84,4.07,60.3964,-1.353,1626130990
Rome,US,76.66,84,90,9.22,43.2128,-75.4557,1626130989
Mossamedes,AO,63.37,77,71,3.42,-15.1961,12.1522,1626131190
Viedma,AR,43.97,66,1,3.38,-40.8135,-62.9967,1626131190
Springbok,ZA,37.72,93,52,14.47,-29.6643,17.8865,1626130936
Uíge,AO,63.5,39,100,4.18,-7.6087,15.0613,1626131190
Verkhnyaya Inta,RU,39.92,77,76,3.62,65.9811,60.3094,1626131191
Emerald,AU,58.33,69,5,6.89,-23.5333,148.1667,1626131191
Xining,CN,56.17,63,23,2.91,36.6167,101.7667,1626131191
Baykit,RU,52.77,82,62,1.39,61.67,96.37,1626131192
Batemans Bay,AU,53.2,68,24,5.53,-35.7167,150.1833,1626131192
Bandarbeyla,SO,77.77,79,100,30.24,9.4942,50.8122,1626131192
Serampore,IN,82.33,89,75,3.44,22.7528,88.3422,1626131193
Beisfjord,NO,61.05,77,43,6.73,68.3751,17.5988,1626131193
Isangel,VU,71.91,89,100,14.61,-19.55,169.2667,1626131193
Rosario,AR,67.95,78,0,1.01,-32.9468,-60.6393,1626131194
Yeppoon,AU,62.38,84,51,11.56,-23.1333,150.7333,1626131194
Myitkyina,MM,74.71,100,94,0.49,25.3833,97.4,1626131194
Mehamn,NO,50.65,94,99,21.74,71.0357,27.8492,1626131194
Saint-Leu,RE,68.86,70,14,4.83,-21.15,55.2833,1626131195
Dutse,NG,76.1,71,83,6.31,11.7594,9.3392,1626131195
Kaputa,ZM,64.6,49,5,0.85,-8.4689,29.6619,1626131195
Vanimo,PG,81.84,77,45,7.31,-2.6741,141.3028,1626131196
Bazarnye Mataki,RU,60.62,80,46,6.22,54.8833,49.9333,1626131196
Saskylakh,RU,59.83,52,96,10.0,71.9167,114.0833,1626131196
Patitiri,GR,78.37,62,0,4.9,39.15,23.8667,1626131196
Rūdbār,AF,89.22,30,3,7.65,30.15,62.6,1626131197
San Miguel de Cozumel,MX,87.12,76,40,5.99,20.5083,-86.9458,1626131197
Petropavlovka,RU,60.17,79,98,3.56,50.6114,105.3196,1626131197
Teahupoo,PF,80.56,78,27,18.68,-17.8333,-149.2667,1626131197
Camacha,PT,66.96,77,40,18.41,33.0833,-16.3333,1626131198
Qinzhou,CN,83.37,78,79,8.05,21.95,108.6167,1626131198
Constitución,CL,50.49,83,48,4.07,-35.3333,-72.4167,1626131176
Safi,MA,69.57,72,93,20.2,32.2994,-9.2372,1626131199
Bull Savanna,JM,82.36,65,46,18.23,17.8868,-77.5902,1626131199
Ilulissat,GL,53.62,47,19,8.05,69.2167,-51.1,1626131199
Kattivākkam,IN,84.29,70,100,10.0,13.2167,80.3167,1626131200
Moranbah,AU,60.89,77,8,13.53,-22.0016,148.0466,1626131200
Waingapu,ID,73.15,81,11,7.7,-9.6567,120.2641,1626131200
Dakar,SN,79.68,84,74,11.83,14.6937,-17.4441,1626131034
Mt. Pleasant,US,86.14,78,40,1.99,32.7941,-79.8626,1626131201
Kruisfontein,ZA,48.88,61,99,28.97,-34.0033,24.7314,1626131201
Puerto Escondido,MX,85.03,61,40,0.0,15.85,-97.0667,1626131163
Taltal,CL,58.35,86,90,3.94,-25.4,-70.4833,1626131201
Lüderitz,NA,53.29,76,19,10.33,-26.6481,15.1594,1626131202
Saint-Pierre,RE,69.48,73,0,9.22,-21.3393,55.4781,1626131202
Conde,BR,72.86,94,0,4.61,-7.2597,-34.9075,1626131202
Palmer,US,70.52,82,90,5.75,42.1584,-72.3287,1626131191
Oktyabr'skoye,RU,62.74,88,90,4.47,43.0645,44.7417,1626131203
Dixon,US,103.19,33,1,6.91,38.4455,-121.8233,1626131203
Narsaq,GL,48.42,87,100,4.92,60.9167,-46.05,1626130991
Ribeira Grande,PT,68.74,73,39,8.3,38.5167,-28.7,1626131203
Karla,EE,66.16,83,0,2.3,59.3723,24.9275,1626131204
Longyearbyen,SJ,42.64,87,75,3.44,78.2186,15.6401,1626131204
Faya,SA,66.72,36,100,4.56,18.3851,42.4509,1626131204
Burla,IN,78.03,85,100,5.46,21.5,83.8667,1626131205
Artvin Province,TR,67.28,94,69,1.92,41.1667,41.8333,1626131205
Tornabé,HN,86.25,84,75,9.22,15.75,-87.55,1626131205
Cortez,US,92.16,20,1,10.36,37.3489,-108.5859,1626131013
Porterville,US,112.68,11,0,9.22,36.0652,-119.0168,1626131206
Beloha,MG,64.26,71,0,6.93,-25.1667,45.05,1626131206
Puerto Madryn,AR,50.04,45,0,8.66,-42.7692,-65.0385,1626131206
Port Moresby,PG,79.88,77,52,4.41,-9.4431,147.1797,1626131207
Touros,BR,76.1,80,55,14.61,-5.1989,-35.4608,1626131207
Fairbanks,US,79.02,30,1,0.0,64.8378,-147.7164,1626131190
Llandrindod Wells,GB,61.0,96,87,2.89,52.2416,-3.3787,1626131207
Kiryat Gat,IL,81.39,100,0,3.15,31.61,34.7642,1626131208
Mitsamiouli,KM,76.75,74,8,6.38,-11.3847,43.2844,1626131208
Miramar,US,84.97,84,75,6.91,25.9873,-80.2323,1626131208
Burgeo,CA,58.5,69,0,16.42,47.6167,-57.6152,1626131209
Conceição do Araguaia,BR,81.36,40,48,0.87,-8.2578,-49.2647,1626131209
Cabo San Lucas,MX,91.18,48,20,14.97,22.8909,-109.9124,1626131002
Iqaluit,CA,45.7,87,100,5.99,63.7506,-68.5145,1626131209
Marawi,PH,69.66,89,82,2.66,7.9986,124.2928,1626131151
Bonavista,CA,56.12,95,86,27.34,48.6499,-53.1147,1626131210
Hare Bay,CA,49.35,95,98,17.49,48.8499,-54.0148,1626131210
Vero Beach,US,81.07,78,75,5.75,27.6386,-80.3973,1626131062
Goianésia,BR,69.85,34,0,1.39,-15.3175,-49.1175,1626131210
Bengkulu,ID,74.17,88,80,3.62,-3.8004,102.2655,1626131211
Magole,TZ,64.99,81,50,2.26,-6.3667,37.3667,1626131211
Yinchuan,CN,80.44,34,0,7.16,38.4681,106.2731,1626131211
Klyuchi,RU,67.23,62,100,7.16,52.2667,79.1667,1626131212
Valparaíso,CL,54.52,79,75,4.61,-33.0393,-71.6273,1626131212
Juegang,CN,81.66,86,100,8.43,32.3174,121.1855,1626131212
Ignacio Zaragoza,MX,74.75,48,99,13.42,28.3833,-107.2167,1626131212
Harper,LR,76.53,78,77,10.71,4.375,-7.7169,1626131213
Labuhan,ID,75.83,87,36,9.4,-6.8844,112.2051,1626131213
Necochea,AR,43.03,84,100,7.47,-38.5473,-58.7368,1626131213
Havre-St-Pierre,CA,59.45,65,32,20.07,50.2334,-63.5986,1626131141
Presque Isle,US,78.66,44,1,3.44,46.6811,-68.0159,1626131214
Saint George,US,110.39,15,1,1.99,37.1041,-113.5841,1626131103
Jalu,LY,88.79,24,1,6.46,29.0331,21.5482,1626131214
Warmbad,NA,42.22,85,65,12.97,-28.45,18.7333,1626131214
Parakou,BJ,71.76,93,96,4.56,9.3372,2.6303,1626131215
Inhambane,MZ,65.39,82,0,9.42,-23.865,35.3833,1626131215
Krasnosel'kup,RU,42.46,68,42,5.55,65.7,82.4667,1626131215
Ponta Delgada,PT,66.92,82,20,8.05,37.7333,-25.6667,1626131078
Fālākāta,IN,79.81,85,76,2.8,26.5208,89.2055,1626131216
Mount Isa,AU,60.57,33,63,0.0,-20.7333,139.5,1626131216
Bollnäs,SE,55.38,98,87,1.74,61.3482,16.3946,1626131217
Tomatlán,MX,87.66,66,99,7.36,19.9333,-105.25,1626131217
Atlantic Beach,US,86.27,77,40,1.01,30.3344,-81.3987,1626131073
Ancud,CL,46.22,76,83,4.34,-41.8697,-73.8203,1626131217
Shingū,JP,76.19,68,4,0.89,33.7333,135.9833,1626131218
Alyangula,AU,75.38,65,83,13.24,-13.8483,136.4192,1626131218
Biak,ID,76.3,85,97,7.27,-0.9131,122.8766,1626131218
Hamilton,US,83.95,73,40,1.01,39.1834,-84.5333,1626131219
Correntina,BR,70.97,39,4,4.07,-13.3433,-44.6367,1626131219
Doha,QA,93.18,55,0,1.14,25.2867,51.5333,1626131219
Mnogovershinnyy,RU,66.45,81,100,2.35,53.9353,139.9242,1626131219
San Ramon,US,91.83,46,20,3.0,37.7799,-121.978,1626130920
Kununurra,AU,58.98,82,57,0.0,-15.7667,128.7333,1626131220
Palmerston,AU,76.93,58,52,6.91,-12.486,130.9833,1626131220
Sembakung,ID,74.44,98,89,2.08,3.8167,117.25,1626131221
Naze,JP,79.34,82,100,6.04,28.3667,129.4833,1626131221
Grand-Santi,GF,73.63,98,96,2.08,4.25,-54.3833,1626131222
Teeli,RU,56.73,76,18,1.39,51.0333,90.2333,1626131222
Quatre Cocos,MU,67.08,65,22,15.82,-20.2078,57.7625,1626131222
Rockingham,US,71.87,87,88,5.19,42.9668,-71.0995,1626131223
Beringovskiy,RU,60.33,63,65,5.75,63.05,179.3167,1626131223
Stokmarknes,NO,58.5,87,59,7.11,68.5646,14.9108,1626131223
Qui Nhon,VN,78.48,87,72,4.32,13.7667,109.2333,1626131224
Geraldton,AU,61.21,82,90,21.85,-28.7667,114.6,1626131224
Bereda,ES,56.95,96,27,1.28,43.2686,-7.5406,1626131224
Ampanihy,MG,64.58,55,0,7.4,-24.7,44.75,1626131225
Chubbuck,US,97.47,6,1,5.01,42.9208,-112.4661,1626131126
Aljezur,PT,62.06,74,0,16.71,37.3191,-8.8033,1626131225
Kinsale,IE,58.37,88,75,16.11,51.7075,-8.5306,1626131225
Channel-Port aux Basques,CA,56.25,83,0,10.29,47.5702,-59.1367,1626131226
Yuancheng,CN,76.44,47,0,2.13,36.652,107.7896,1626131226
Henties Bay,NA,54.86,81,0,14.74,-22.116,14.2845,1626131223
Killybegs,IE,57.45,93,12,4.99,54.6333,-8.45,1626131226
Xiuyan,CN,73.6,97,100,14.36,40.2928,123.2744,1626131227
Salamanca,ES,54.0,66,4,6.91,40.8333,-6.0,1626131227
Salalah,OM,80.69,89,90,8.05,17.0151,54.0924,1626131143
Bowen,AU,65.14,85,56,10.38,-20.0167,148.2333,1626131227
Catazaja,MX,82.58,77,94,5.84,17.725,-92.0167,1626131228
Altay,CN,56.97,72,5,3.67,47.8667,88.1167,1626131228
Laas,IT,70.54,96,88,5.44,46.6166,10.7002,1626131228
Surenavan,AM,81.21,44,4,4.21,39.75,44.8,1626131228
Spydeberg,NO,60.03,84,79,1.97,59.6171,11.0856,1626131229
Tessalit,ML,96.49,9,5,6.17,20.1986,1.0114,1626131229
Carballo,ES,60.87,90,38,3.13,43.213,-8.691,1626131229
Pemba,MZ,73.89,81,13,9.75,-12.974,40.5178,1626131230
Ust-Tsilma,RU,44.01,80,3,2.55,65.441,52.1498,1626131230
Sirte,LY,79.23,74,0,8.72,31.2089,16.5887,1626131230
Westport,US,78.06,89,90,1.01,41.1415,-73.3579,1626131231
Whitehaven,GB,65.17,93,100,8.93,54.549,-3.5841,1626131231
Dzhebariki-Khaya,RU,64.0,57,89,2.21,62.2167,135.8,1626131231
Hervey Bay,AU,61.02,89,5,4.0,-25.2986,152.8535,1626131232
Lavrentiya,RU,48.49,85,83,7.81,65.5833,-171.0,1626131232
Castle Douglas,GB,58.33,93,80,3.94,54.9409,-3.9278,1626131232
Muleba,TZ,69.24,62,42,6.26,-1.8397,31.6544,1626131233
San-Pédro,CI,76.01,83,9,8.12,4.7485,-6.6363,1626131233
Qaqortoq,GL,48.7,88,98,4.83,60.7167,-46.0333,1626131233
Qinhuangdao,CN,74.77,97,100,9.84,39.9317,119.5883,1626131233
Gilgit,PK,76.59,67,25,3.31,35.9221,74.3087,1626131234
Bemidji,US,84.18,37,1,12.66,47.4736,-94.8803,1626131234
Colares,PT,64.29,73,0,11.99,38.7992,-9.4469,1626131234
Kostomuksha,RU,58.23,71,25,4.99,64.571,30.5767,1626131235
Marquette,US,77.77,59,16,6.93,46.5333,-87.6335,1626131060
Bila,BA,66.94,64,0,3.87,43.7825,16.9253,1626131235
Nakhon Phanom,TH,76.64,89,65,4.68,17.3333,104.4167,1626131235
Anloga,GH,77.34,83,28,10.69,5.7947,0.8973,1626131236
Saint-François,FR,57.47,95,90,3.44,46.4154,3.9054,1626131236
Yangi Marg`ilon,UZ,74.62,73,99,6.55,40.4272,71.7189,1626131236
Shizukuishi,JP,72.37,92,65,2.17,39.6833,140.9833,1626131237
Gori,GE,67.32,91,74,0.58,41.9842,44.1158,1626131237
Ampére,BR,60.94,69,7,3.51,-25.915,-53.4728,1626131237
Mareeba,AU,70.48,83,41,4.18,-17.0,145.4333,1626131229
Tolaga Bay,NZ,51.04,84,100,21.25,-38.3667,178.3,1626131237
Calvinia,ZA,36.09,94,99,19.75,-31.4707,19.776,1626131238
Orchard Homes,US,95.14,19,1,1.01,46.8633,-114.0484,1626131238
Raudeberg,NO,59.67,91,91,7.34,61.9875,5.1352,1626131238
Dukat,RU,53.31,86,100,5.7,62.55,155.55,1626131239
Morganton,US,85.23,69,1,3.0,35.7454,-81.6848,1626131239
Puerto Peñasco,MX,87.91,72,64,15.99,31.3167,-113.5333,1626131239
Muroto-misakicho,JP,77.41,80,10,6.22,33.2833,134.15,1626131239
Payakumbuh,ID,69.58,99,100,2.35,-0.2202,100.6308,1626131240
Cloquet,US,80.13,45,1,4.61,46.7216,-92.4594,1626131240
Broken Hill,AU,51.46,59,97,5.82,-31.95,141.4333,1626131240
Valley City,US,88.79,45,20,10.36,46.9233,-98.0032,1626131041
Biltine,TD,80.44,57,73,20.8,14.5333,20.9167,1626131241
Alofi,NU,78.69,83,75,13.8,-19.0595,-169.9187,1626131241
San Vicente,AR,58.86,70,45,2.51,-26.6167,-54.1333,1626131241
Ucluelet,CA,93.04,76,22,1.99,48.9329,-125.5528,1626131242
San Antero,CO,81.93,85,60,8.55,9.3741,-75.7589,1626131242
Leer,SS,71.55,90,99,3.0,8.3018,30.1418,1626131242
Ambovombe,MG,65.98,79,0,6.89,-25.1667,46.0833,1626131239
Amazar,RU,60.1,99,100,3.4,53.858,120.875,1626131243
Tabou,CI,76.15,79,43,9.98,4.423,-7.3528,1626131243
Coahuayana Viejo,MX,90.88,67,88,4.12,18.7333,-103.6833,1626131243
Khalīlābād,IN,83.3,79,19,5.55,26.775,83.0736,1626131244
Coyhaique,CL,40.95,81,75,5.75,-45.5752,-72.0662,1626131095
Xai-Xai,MZ,63.37,62,0,11.97,-25.0519,33.6442,1626131244
Santa Cruz de la Sierra,BO,79.95,47,0,9.66,-17.8,-63.1667,1626131016
Avera,US,83.08,80,67,6.85,33.194,-82.5271,1626131154
Ust-Kuyga,RU,57.06,51,27,3.15,70.0167,135.6,1626131245
Muros,ES,62.24,84,68,6.35,42.7762,-9.0603,1626131245
Ichchāpuram,IN,80.53,86,100,1.3,19.1167,84.7,1626131245
Ciudad del Carmen,MX,84.24,74,75,12.66,18.6333,-91.8333,1626131245
Gangākher,IN,77.7,83,80,9.24,18.95,76.75,1626131246
Kédougou,SN,74.84,95,100,4.81,12.5579,-12.1743,1626131246
Pitimbu,BR,73.99,81,56,11.68,-7.4706,-34.8086,1626131246
Fallon,US,109.18,10,46,23.04,39.4735,-118.7774,1626131247
Hanyang,CN,73.9,94,77,1.88,32.1371,105.5126,1626131247
Skjervøy,NO,53.64,85,43,8.1,70.0311,20.9714,1626131247
Palana,RU,48.61,97,100,7.67,59.1167,159.9667,1626131248
Koboko,UG,62.78,91,91,4.38,3.4136,30.9599,1626131248
Kayerkan,RU,36.21,83,100,8.01,69.3497,87.7602,1626131248
Buala,SB,82.62,78,97,8.88,-8.145,159.5921,1626131249
Kaniama,CD,63.34,33,20,4.38,-7.5667,24.1833,1626131249
Nassau,US,79.68,87,90,3.0,40.7507,-73.5829,1626131190
Smirnykh,RU,75.27,72,15,1.57,49.75,142.8333,1626131249
Zhezkazgan,KZ,65.43,55,87,9.86,47.8043,67.7144,1626131250
Gaza,PS,80.58,82,0,4.12,31.5,34.4667,1626131250
Morgan City,US,87.04,74,1,5.75,29.6994,-91.2068,1626131250
Myanaung,MM,74.98,96,51,4.32,18.2833,95.3167,1626131250
Amapá,BR,72.68,95,57,2.42,1.0,-52.0,1626131251
Wajir,KE,75.31,65,59,17.76,1.7471,40.0573,1626131251
Waddān,LY,78.35,57,0,9.69,29.1614,16.139,1626131251
Kalur Kot,PK,84.88,61,100,8.99,32.1564,71.2594,1626131252
Altamont,US,97.77,17,1,7.0,42.2068,-121.7372,1626131131
Kieta,PG,80.69,80,99,5.75,-6.2167,155.6333,1626131252
Camopi,GF,72.72,97,94,2.44,3.1655,-52.3158,1626131252
Nuuk,GL,47.88,81,59,8.05,64.1835,-51.7216,1626131253
Kralendijk,BQ,80.46,87,84,26.46,12.15,-68.2667,1626131253
Umba,RU,54.63,89,81,4.36,66.6871,34.3429,1626131253
Hobyo,SO,76.95,84,79,29.53,5.3505,48.5268,1626131216
Honiara,SB,84.29,71,74,6.98,-9.4333,159.95,1626131254
Olafsvik,IS,50.81,88,99,13.0,64.8945,-23.7142,1626131254
Engel's,RU,66.36,79,0,7.0,51.5,46.1167,1626131254
Três Lagoas,BR,72.34,29,1,3.02,-20.7511,-51.6783,1626131031
Jiutai,CN,77.11,85,100,6.29,44.1525,125.8328,1626131255
Comodoro Rivadavia,AR,49.86,50,0,13.8,-45.8667,-67.5,1626131255
Praia da Vitória,PT,68.76,80,64,14.43,38.7333,-27.0667,1626131255
Sicamous,CA,98.11,21,6,3.24,50.8331,-118.9856,1626131255
Palauig,PH,83.3,72,100,2.19,15.435,119.9045,1626131256
Gizo Government Station,SB,82.24,76,96,4.81,-8.103,156.8419,1626131256
Kutum,SD,73.27,61,44,14.09,14.2,24.6667,1626131256
Mayor Pablo Lagerenza,PY,78.94,27,27,6.15,-19.9309,-60.7718,1626131257
Caçu,BR,69.19,31,0,4.81,-18.5567,-51.1308,1626131257
Garden City,US,74.14,88,90,4.61,42.3256,-83.331,1626131257
Kamenka,RU,60.6,73,0,7.36,51.3223,42.7678,1626131257
Tabuleiro do Norte,BR,83.93,50,94,11.14,-5.2467,-38.1306,1626131258
Dunedin,NZ,45.09,77,100,4.25,-45.8742,170.5036,1626131258
Lázaro Cárdenas,MX,83.64,76,100,5.55,17.9583,-102.2,1626131161
Garwolin,PL,69.46,86,84,2.19,51.8975,21.6147,1626131258
Alexandria,EG,78.37,67,0,8.81,31.2156,29.9553,1626131259
Meulaboh,ID,75.27,87,92,3.11,4.1363,96.1285,1626131259
Port Hedland,AU,66.25,100,90,0.0,-20.3167,118.5667,1626131259
Coquimbo,CL,56.93,76,90,5.75,-29.9533,-71.3436,1626131260
Alice Springs,AU,65.75,20,63,14.97,-23.7,133.8833,1626131138
Örnsköldsvik,SE,58.15,94,92,2.3,63.2909,18.7153,1626131260
Vadsø,NO,54.48,83,100,14.61,70.0744,29.7487,1626131260
Solano,US,102.16,42,1,24.16,38.2333,-121.9511,1626131260
Kloulklubed,PW,82.9,73,100,8.97,7.0419,134.2556,1626131261
Banes,CU,81.21,81,34,16.35,20.9625,-75.7186,1626131261
Paratinga,BR,76.26,33,2,4.03,-12.6906,-43.1842,1626131262
Tazovsky,RU,39.06,73,100,10.4,67.4667,78.7,1626131262
Broome,US,77.85,87,90,1.01,42.2506,-75.833,1626131262
Erzin,TR,79.52,79,0,0.85,36.9559,36.2,1626131262
Vila,PT,51.33,80,59,3.33,42.0304,-8.1588,1626131263
Lashio,MM,66.96,100,77,1.43,22.9333,97.75,1626131263
Orange Cove,US,113.63,21,1,5.75,36.6244,-119.3137,1626131264
Östersund,SE,65.61,68,0,8.05,63.1792,14.6357,1626131264
Abu Dhabi,AE,93.31,75,0,6.91,24.4667,54.3667,1626131264
Barguzin,RU,62.37,66,13,2.42,53.6167,109.6167,1626131264
Oistins,BB,82.49,74,40,18.41,13.0667,-59.5333,1626131265
Marystown,CA,53.64,82,32,18.72,47.1666,-55.1483,1626131181
Manacapuru,BR,81.18,85,97,4.21,-3.2997,-60.6206,1626131265
Steinbach am Taunus,DE,68.99,92,20,2.3,50.1667,8.5667,1626131265
Djougou,BJ,73.83,85,89,4.76,9.7085,1.666,1626131266
Marzuq,YE,79.65,51,100,10.51,14.4,46.4667,1626131266
Jamkhed,IN,74.8,89,93,12.39,18.7362,75.3121,1626131266
Golyshmanovo,RU,49.5,89,97,16.71,56.3979,68.3728,1626131267
Katobu,ID,74.91,90,65,3.27,-4.9408,122.5276,1626131267
West Bay,KY,87.87,72,20,4.0,19.3667,-81.4167,1626131267
Iwanai,JP,75.97,72,27,2.35,42.9744,140.5089,1626131267
Lavaca,US,89.92,71,1,11.5,28.615,-96.6261,1626131268
Kiama,AU,60.58,76,3,1.01,-34.6833,150.8667,1626131268
Aden,YE,88.45,60,100,15.64,12.7794,45.0367,1626131087
San Fernando del Valle de Catamarca,AR,66.49,62,85,2.98,-28.4696,-65.7852,1626131268
Byron Bay,AU,63.05,76,4,2.39,-28.65,153.6167,1626131269
Empório,GR,69.84,51,29,1.81,40.4833,21.55,1626131269
Labytnangi,RU,38.89,81,24,2.01,66.6572,66.4183,1626131269
Urucará,BR,79.63,73,100,1.63,-2.5364,-57.76,1626131270
Lompoc,US,86.02,71,1,13.8,34.6391,-120.4579,1626131047
Mindelo,CV,72.0,79,54,13.58,16.8901,-24.9804,1626131270
Powell,US,82.56,84,75,1.99,40.1578,-83.0752,1626131001
Horní Planá,CZ,63.3,62,41,3.78,48.7674,14.0326,1626131271
Bairiki Village,KI,86.0,70,20,10.36,1.3292,172.9752,1626131271
Lagoa,PT,67.19,74,14,18.68,39.05,-27.9833,1626130987
Gravdal,NO,56.73,87,99,15.32,68.1214,13.5031,1626130990
Abu Samrah,SY,76.46,57,0,9.06,35.3029,37.1841,1626131272
Lamu,KE,75.42,84,45,14.23,-2.2717,40.902,1626131272
Sarangani,PH,82.35,74,93,10.04,5.4033,125.4636,1626131272
Yertsevo,RU,63.21,74,16,4.85,60.7966,40.086,1626131273
Rawson,AR,48.76,47,1,9.69,-43.3002,-65.1023,1626131247
High Prairie,CA,78.48,32,31,4.99,55.4334,-116.4858,1626131273
Popondetta,PG,82.72,67,55,0.69,-8.7537,148.2534,1626131273
Tilichiki,RU,60.94,65,2,4.68,60.4667,166.1,1626131274
Kanalia,GR,75.02,46,3,2.62,39.5,22.8833,1626131274
Calabozo,VE,81.39,71,94,3.18,8.9242,-67.4293,1626131274
Port Hardy,CA,62.89,68,17,12.62,50.6996,-127.4199,1626131274
Haldībāri,IN,81.54,84,90,1.48,26.3333,88.7667,1626131275
Plettenberg Bay,ZA,49.3,73,87,24.18,-34.0527,23.3716,1626131275
Fomboni,KM,77.02,72,0,10.58,-12.28,43.7425,1626131275
Castelo do Piauí,BR,85.73,37,67,10.51,-5.3222,-41.5525,1626131276
Sergeevka,KZ,51.03,96,100,20.85,53.88,67.4158,1626131276
Santa Isabel,BR,65.66,82,0,0.85,-23.3156,-46.2214,1626131276
Northam,GB,61.66,95,20,12.55,51.0333,-4.2167,1626131277
Zhetysay,KZ,71.98,24,1,7.02,40.7333,68.3,1626131277
Syracuse,IT,80.62,61,0,6.71,37.0881,15.2792,1626131277
Dombarovskiy,RU,60.57,54,37,7.94,50.7587,59.5386,1626131278
Korla,CN,77.22,28,72,9.22,41.7597,86.1469,1626131278
Marondera,ZW,49.33,82,8,6.76,-18.1853,31.5519,1626131278
North Battleford,CA,80.42,26,45,13.27,52.7834,-108.2847,1626131278
San Andrés,CO,82.42,83,75,10.36,12.5847,-81.7006,1626131279
Makakilo City,US,86.32,54,75,8.05,21.3469,-158.0858,1626131279
Ekhabi,RU,63.01,92,100,5.55,53.5102,142.9671,1626131279
Swan Hill,AU,51.06,81,98,6.44,-35.3378,143.5544,1626131280
Sisimiut,GL,45.16,64,0,4.07,66.9395,-53.6735,1626131280
Burnie,AU,49.71,89,47,2.01,-41.0667,145.9167,1626131280
Khovd,MN,59.13,53,55,5.39,48.0056,91.6419,1626131280
Gīdam,IN,74.89,92,93,0.78,18.9833,81.4,1626131281
Manado,ID,77.77,94,20,1.14,1.487,124.8455,1626131281
Barra de Tecoanapa,MX,85.3,68,24,6.98,16.5167,-98.75,1626131281
Dhidhdhoo,MV,81.68,79,100,15.95,6.8833,73.1,1626131282
San Luis,AR,54.73,70,3,10.69,-33.295,-66.3356,1626130990
Tambura,SS,68.36,98,95,4.18,5.6,27.4667,1626131282
Aldan,RU,56.05,90,100,1.5,58.6031,125.3894,1626131282
West Wendover,US,101.41,11,1,4.61,40.7391,-114.0733,1626131283
Venice,US,81.99,87,40,6.91,27.0998,-82.4543,1626131011
Athabasca,CA,80.51,29,14,10.47,54.7169,-113.2854,1626131283
Ambon City,ID,77.14,94,40,2.3,-3.6954,128.1814,1626131283
Port-Gentil,GA,75.72,83,85,15.77,-0.7193,8.7815,1626131284
Pochutla,MX,87.82,72,68,3.91,15.7432,-96.4661,1626131284
Iskateley,RU,37.94,90,4,3.04,67.6803,53.1512,1626131284
Arrondissement de Lannion,FR,58.68,100,75,6.91,48.75,-3.4167,1626131284
Tigzirt,DZ,83.89,43,60,12.53,36.8886,4.1198,1626131285
Ratne,UA,71.1,68,76,7.0,51.6683,24.5303,1626131285
Pokrovskoye,RU,79.81,52,30,9.01,47.4157,38.8971,1626131285
Kasli,RU,49.53,83,3,4.72,55.8909,60.7616,1626131286
Radenci,SI,72.28,88,0,4.59,46.642,16.0378,1626131286
Sistranda,NO,58.96,92,42,6.2,63.7256,8.834,1626131286
Rzhaksa,RU,59.97,74,0,6.49,52.1338,42.0264,1626131286
Cravinhos,BR,66.92,36,18,4.29,-21.3403,-47.7294,1626131287
Varzob,TJ,73.13,43,70,4.68,38.7737,68.8178,1626131287
Watertown,US,69.19,94,90,1.01,42.3709,-71.1828,1626131287
Kumluca,TR,81.52,54,0,2.98,36.3703,30.2869,1626131288
Arrondissement de Mende,FR,44.08,96,94,6.8,44.6667,3.5,1626131004
Maridi,SS,66.33,96,91,4.43,4.9158,29.4742,1626131288
Mount Gambier,AU,49.91,100,90,10.36,-37.8333,140.7667,1626131230
Bontang,ID,76.3,91,100,5.21,0.1333,117.5,1626131288
Tura,IN,74.1,97,94,5.75,25.5198,90.2201,1626131289
Opuwo,NA,54.79,41,3,5.73,-18.0607,13.84,1626131289
Rupert,US,96.75,17,1,4.61,42.6191,-113.6772,1626131289
Chapais,CA,77.63,33,0,2.82,49.7834,-74.8492,1626131290
Panguna,PG,73.44,83,96,2.37,-6.3164,155.4848,1626131290
Kaufungen,DE,65.44,82,86,1.39,51.2811,9.6186,1626131290
Pangoa,PE,72.95,72,75,1.88,-12.1167,-73.0,1626131290
Zongolica,MX,70.66,93,93,4.45,18.6667,-96.9833,1626131291
Omboué,GA,72.99,83,43,7.85,-1.5746,9.2618,1626131291
Nhulunbuy,AU,79.41,69,40,12.66,-12.2333,136.7667,1626131291
Birjand,IR,76.62,27,0,7.18,32.8663,59.2211,1626131292
Corrientes,AR,72.99,71,42,1.99,-27.4806,-58.8341,1626131292
Wanaka,NZ,35.11,99,37,1.34,-44.7,169.15,1626131292
Shelburne,CA,74.26,75,98,6.17,44.0787,-80.2041,1626131292
Yārāda,IN,80.92,100,75,2.3,17.65,83.2667,1626131209
Redcar,GB,61.36,86,100,7.76,54.6166,-1.06,1626131293
Anaconda,US,88.95,9,0,6.38,46.1285,-112.9423,1626131293
Hacienda Heights,US,105.89,54,1,5.01,33.9931,-117.9687,1626131293
Hot Springs,US,86.72,55,1,4.0,34.5037,-93.0552,1626131294
Muravlenko,RU,42.55,71,21,8.3,63.7898,74.523,1626131294
Soe,ID,62.85,72,6,4.29,-9.8607,124.284,1626131294
Kruszwica,PL,67.08,88,70,6.64,52.6756,18.3313,1626131295
Bindura,ZW,56.01,62,96,2.01,-17.3019,31.3306,1626131295
Mae Sai,TH,72.45,99,37,0.45,20.4335,99.8762,1626131295
Velizh,RU,67.28,90,33,2.1,55.6056,31.1967,1626131296
Grajaú,BR,83.89,38,24,3.58,-5.8194,-46.1386,1626131296
Zhangaözen,KZ,79.29,38,0,12.77,43.3,52.8,1626131296
Ballina,AU,56.79,78,3,4.03,-28.8667,153.5667,1626131297
Umluj,SA,86.11,56,1,9.78,25.0213,37.2685,1626131297
Kristianstad,SE,65.95,87,14,1.01,56.0313,14.1524,1626131297
São Borja,BR,64.08,60,69,5.55,-28.6606,-56.0044,1626131034
Gushikawa,JP,83.79,85,1,5.75,26.3544,127.8686,1626131298
